[{"id": "5kXCJ5OEutdr7kfeLmgBSQ", "alias": "eleven19-kitchen-and-cocktails-north-chicago", "name": "Eleven19 Kitchen & Cocktails", "image_url": "https://s3-media3.fl.yelpcdn.com/bphoto/hIoYnxEM3k5OF9t_WIDy8g/o.jpg", "is_closed": false, "url": "https://www.yelp.com/biz/eleven19-kitchen-and-cocktails-north-chicago?adjust_creative=UxOuRlH9oN_SMuVG_RiNhA&utm_campaign=yelp_api_v3&utm_medium=api_v3_business_search&utm_source=UxOuRlH9oN_SMuVG_RiNhA", "review_count": 6, "categories": [{"alias": "seafood", "title": "Seafood"}, {"alias": "burgers", "title": "Burgers"}, {"alias": "cocktailbars", "title": "Cocktail Bars"}], "rating": 4.0, "coordinates": {"latitude": 42.341193853587214, "longitude": -87.8459586}, "transactions": ["pickup", "delivery"], "location": {"address1": "1119 10TH ST", "address2": null, "address3": null, "city": "North Chicago", "zip_code": "60064", "country": "US", "state": "IL", "display_address": ["1119 10TH ST", "North Chicago, IL 60064"]}, "phone": "+18476724265", "display_phone": "(847) 672-4265", "distance": 2891.6257007636914}, {"id": "SBW7e8uLIOLCp3Fq9RCcRQ", "alias": "da-local-boy-waukegan", "name": "Da Local Boy", "image_url": "https://s3-media3.fl.yelpcdn.com/bphoto/xf-uyNumPVPpHXE2RjP2jQ/o.jpg", "is_closed": false, "url": "https://www.yelp.com/biz/da-local-boy-waukegan?adjust_creative=UxOuRlH9oN_SMuVG_RiNhA&utm_campaign=yelp_api_v3&utm_medium=api_v3_business_search&utm_source=UxOuRlH9oN_SMuVG_RiNhA", "review_count": 18, "categories": [{"alias": "foodtrucks", "title": "Food Trucks"}, {"alias": "salad", "title": "Salad"}, {"alias": "hawaiian", "title": "Hawaiian"}], "rating": 5.0, "coordinates": {"latitude": 42.353329559078, "longitude": -87.86821866139391}, "transactions": [], "location": {"address1": null, "address2": null, "address3": null, "city": "Waukegan", "zip_code": "60085", "country": "US", "state": "IL", "display_address": ["Waukegan, IL 60085"]}, "phone": "+18083593614", "display_phone": "(808) 359-3614", "distance": 4045.4716820718577}, {"id": "dz5MxYb75uD4-EBzA0VS2Q", "alias": "maevery-public-house-lake-bluff", "name": "Maevery Public House", "image_url": "https://s3-media3.fl.yelpcdn.com/bphoto/CSluKkBoelXku45_Zqom4w/o.jpg", "is_closed": false, "url": "https://www.yelp.com/biz/maevery-public-house-lake-bluff?adjust_creative=UxOuRlH9oN_SMuVG_RiNhA&utm_campaign=yelp_api_v3&utm_medium=api_v3_business_search&utm_source=UxOuRlH9oN_SMuVG_RiNhA", "review_count": 235, "categories": [{"alias": "cocktailbars", "title": "Cocktail Bars"}, {"alias": "newamerican", "title": "American (New)"}, {"alias": "gastropubs", "title": "Gastropubs"}], "rating": 4.0, "coordinates": {"latitude": 42.279872, "longitude": -87.8451719}, "transactions": ["delivery"], "price": "$$", "location": {"address1": "20 E Scranton Ave", "address2": "", "address3": "", "city": "Lake Bluff", "zip_code": "60044", "country": "US", "state": "IL", "display_address": ["20 E Scranton Ave", "Lake Bluff, IL 60044"]}, "phone": "+18476043952", "display_phone": "(847) 604-3952", "distance": 4356.148158100159}, {"id": "8hwBKiiP-u3yOKkA2Gk7dQ", "alias": "taqueria-toluca-waukegan", "name": "Taqueria Toluca", "image_url": "https://s3-media2.fl.yelpcdn.com/bphoto/8y50JEwbgqzfdSmGVdk_nQ/o.jpg", "is_closed": false, "url": "https://www.yelp.com/biz/taqueria-toluca-waukegan?adjust_creative=UxOuRlH9oN_SMuVG_RiNhA&utm_campaign=yelp_api_v3&utm_medium=api_v3_business_search&utm_source=UxOuRlH9oN_SMuVG_RiNhA", "review_count": 59, "categories": [{"alias": "mexican", "title": "Mexican"}], "rating": 4.5, "coordinates": {"latitude": 42.3414349, "longitude": -87.8416976}, "transactions": ["pickup", "delivery"], "price": "$", "location": {"address1": "822 10th St", "address2": "", "address3": "", "city": "Waukegan", "zip_code": "60085", "country": "US", "state": "IL", "display_address": ["822 10th St", "Waukegan, IL 60085"]}, "phone": "+18472447851", "display_phone": "(847) 244-7851", "distance": 3081.8120623385485}, {"id": "rVEI0ZlhOSPvnETtvW49mw", "alias": "los-altos-mexican-restaurant-north-chicago", "name": "Los Altos Mexican Restaurant", "image_url": "https://s3-media1.fl.yelpcdn.com/bphoto/sBuvI9CZHNxUFIzeHSwhrA/o.jpg", "is_closed": false, "url": "https://www.yelp.com/biz/los-altos-mexican-restaurant-north-chicago?adjust_creative=UxOuRlH9oN_SMuVG_RiNhA&utm_campaign=yelp_api_v3&utm_medium=api_v3_business_search&utm_source=UxOuRlH9oN_SMuVG_RiNhA", "review_count": 7, "categories": [{"alias": "mexican", "title": "Mexican"}], "rating": 3.0, "coordinates": {"latitude": 42.31968959112019, "longitude": -87.86253959999999}, "transactions": ["pickup", "delivery"], "location": {"address1": "2500 Martin Luther King Jr Dr", "address2": null, "address3": "", "city": "North Chicago", "zip_code": "60064", "country": "US", "state": "IL", "display_address": ["2500 Martin Luther King Jr Dr", "North Chicago, IL 60064"]}, "phone": "+12246373471", "display_phone": "(224) 637-3471", "distance": 314.50227102185056}, {"id": "wIKSv-kL1MVQWm1bsO1Ufg", "alias": "the-silo-lake-bluff", "name": "The Silo Restaurant", "image_url": "https://s3-media2.fl.yelpcdn.com/bphoto/WFxZkGvR_5XNPsX8ZFqyeg/o.jpg", "is_closed": false, "url": "https://www.yelp.com/biz/the-silo-lake-bluff?adjust_creative=UxOuRlH9oN_SMuVG_RiNhA&utm_campaign=yelp_api_v3&utm_medium=api_v3_business_search&utm_source=UxOuRlH9oN_SMuVG_RiNhA", "review_count": 552, "categories": [{"alias": "pizza", "title": "Pizza"}, {"alias": "bars", "title": "Bars"}], "rating": 4.0, "coordinates": {"latitude": 42.280318, "longitude": -87.874765}, "transactions": ["pickup", "delivery"], "price": "$$", "location": {"address1": "625 Rockland Rd", "address2": "", "address3": "", "city": "Lake Bluff", "zip_code": "60044", "country": "US", "state": "IL", "display_address": ["625 Rockland Rd", "Lake Bluff, IL 60044"]}, "phone": "+18472347456", "display_phone": "(847) 234-7456", "distance": 4295.948590601869}, {"id": "R_isoF7061_7MIa1obOlBQ", "alias": "inovasi-lake-bluff", "name": "Inovasi", "image_url": "https://s3-media1.fl.yelpcdn.com/bphoto/gZcZUnxa9hAjU6LGf-s_TQ/o.jpg", "is_closed": false, "url": "https://www.yelp.com/biz/inovasi-lake-bluff?adjust_creative=UxOuRlH9oN_SMuVG_RiNhA&utm_campaign=yelp_api_v3&utm_medium=api_v3_business_search&utm_source=UxOuRlH9oN_SMuVG_RiNhA", "review_count": 282, "categories": [{"alias": "newamerican", "title": "American (New)"}, {"alias": "wine_bars", "title": "Wine Bars"}, {"alias": "sushi", "title": "Sushi Bars"}], "rating": 3.5, "coordinates": {"latitude": 42.279528, "longitude": -87.844572}, "transactions": ["pickup", "delivery"], "price": "$$$", "location": {"address1": "28 E Center Ave", "address2": "", "address3": "", "city": "Lake Bluff", "zip_code": "60044", "country": "US", "state": "IL", "display_address": ["28 E Center Ave", "Lake Bluff, IL 60044"]}, "phone": "+18472951000", "display_phone": "(847) 295-1000", "distance": 4407.81217159284}, {"id": "5M978_AsNKLPFT3u21AgAA", "alias": "browns-chicken-waukegan", "name": "Brown's Chicken", "image_url": "https://s3-media2.fl.yelpcdn.com/bphoto/ESVMLOU5oYkuqzl8rVlq6w/o.jpg", "is_closed": false, "url": "https://www.yelp.com/biz/browns-chicken-waukegan?adjust_creative=UxOuRlH9oN_SMuVG_RiNhA&utm_campaign=yelp_api_v3&utm_medium=api_v3_business_search&utm_source=UxOuRlH9oN_SMuVG_RiNhA", "review_count": 40, "categories": [{"alias": "chicken_wings", "title": "Chicken Wings"}, {"alias": "italian", "title": "Italian"}, {"alias": "soulfood", "title": "Soul Food"}], "rating": 3.5, "coordinates": {"latitude": 42.349395, "longitude": -87.879966}, "transactions": [], "price": "$", "location": {"address1": "3150 Belvedere Rd", "address2": "", "address3": "", "city": "Waukegan", "zip_code": "60085", "country": "US", "state": "IL", "display_address": ["3150 Belvedere Rd", "Waukegan, IL 60085"]}, "phone": "+18476621820", "display_phone": "(847) 662-1820", "distance": 3902.094232516966}, {"id": "nBl3DVObC6RezR2NsH7b4w", "alias": "hunan-hibachi-buffet-waukegan", "name": "Hunan Hibachi Buffet", "image_url": "https://s3-media1.fl.yelpcdn.com/bphoto/r0jPJpTvjs9ShUDVnfKuzA/o.jpg", "is_closed": false, "url": "https://www.yelp.com/biz/hunan-hibachi-buffet-waukegan?adjust_creative=UxOuRlH9oN_SMuVG_RiNhA&utm_campaign=yelp_api_v3&utm_medium=api_v3_business_search&utm_source=UxOuRlH9oN_SMuVG_RiNhA", "review_count": 94, "categories": [{"alias": "japanese", "title": "Japanese"}, {"alias": "buffets", "title": "Buffets"}, {"alias": "chinese", "title": "Chinese"}], "rating": 2.5, "coordinates": {"latitude": 42.3462905883789, "longitude": -87.8984069824219}, "transactions": ["pickup", "delivery"], "price": "$$", "location": {"address1": "3900 Northpoint Blvd", "address2": "", "address3": "", "city": "Waukegan", "zip_code": "60085", "country": "US", "state": "IL", "display_address": ["3900 Northpoint Blvd", "Waukegan, IL 60085"]}, "phone": "+18476889999", "display_phone": "(847) 688-9999", "distance": 4512.221314790395}, {"id": "tKF82SeRK08iADyjTa068A", "alias": "browns-chicken-waukegan-2", "name": "Brown's Chicken", "image_url": "https://s3-media1.fl.yelpcdn.com/bphoto/sMcNs0oaHM7GZtv7LMpVGQ/o.jpg", "is_closed": false, "url": "https://www.yelp.com/biz/browns-chicken-waukegan-2?adjust_creative=UxOuRlH9oN_SMuVG_RiNhA&utm_campaign=yelp_api_v3&utm_medium=api_v3_business_search&utm_source=UxOuRlH9oN_SMuVG_RiNhA", "review_count": 2, "categories": [{"alias": "italian", "title": "Italian"}, {"alias": "chicken_wings", "title": "Chicken Wings"}], "rating": 1.0, "coordinates": {"latitude": 42.34926, "longitude": -87.88008}, "transactions": ["delivery"], "location": {"address1": "3150 Belvidere Rd", "address2": "", "address3": null, "city": "Waukegan", "zip_code": "60085", "country": "US", "state": "IL", "display_address": ["3150 Belvidere Rd", "Waukegan, IL 60085"]}, "phone": "+18476621820", "display_phone": "(847) 662-1820", "distance": 3902.094232516966}]